[
  { "name": "Adobe", "website": "https://www.adobe.com", "phone": "1-800-833-6687" },
  { "name": "Agoda", "website": "https://www.agoda.com", "phone": "+1 866 656 8207" },
  { "name": "Amazon Audible", "website": "https://www.audible.com", "phone": "1-(888)-283-5051 (US) or 1-(206)-577-1377 (Outside US)" },
  { "name": "Amazon customer", "website": "https://www.amazon.com", "phone": "1-888-280-4331 or 1-800-383-9484 or 1-800-433-1914 or 1-206-577-1364 (outside US/Canada)" },
  { "name": "Amazon Kindle", "website": "https://www.amazon.com", "phone": "1-866-749-7771" },
  { "name": "AOL", "website": "https://www.aol.com", "phone": "1-800-827-6364 or 1-800-358-4860" },
  { "name": "APPLE", "website": "https://www.apple.com", "phone": "1-800-275-2273" },
  { "name": "APPLE UK", "website": "https://www.apple.com/uk", "phone": "800 107 6285 or 0800 048 0408" },
  { "name": "ATT Bill", "website": "https://www.att.com", "phone": "800.331.0500" },
  { "name": "Avast", "website": "https://www.avast.com", "phone": "1-855-746-4118" },
  { "name": "AVG Paid Support", "website": "https://www.avg.com", "phone": "+1-855-348-0258 or (+1) 855-742-9625 or UK : (+44) 808-169-2189" },
  { "name": "Booking.com", "website": "https://www.booking.com", "phone": "(888) 850-3958" },
  { "name": "Brother", "website": "https://www.brother.com", "phone": "877 276 8437" },
  { "name": "Canada Post", "website": "https://www.canadapost-postescanada.ca", "phone": "1-866-607-6301 or 1-888-550-6333" },
  { "name": "CANON UK", "website": "https://www.canon.co.uk", "phone": "+44 (0)207 660 0186" },
  { "name": "CashApp", "website": "https://cash.app", "phone": "1 (800) 969-1940", "hours": "Mon-Fri 9:00am-7:00pm EST" },
  { "name": "Century Link", "website": "https://www.centurylink.com", "phone": "800-244-1111" },
  { "name": "Chime", "website": "https://www.chime.com", "phone": "844-244-6363" },
  { "name": "Cox", "website": "https://www.cox.com", "phone": "1-800-234-3993" },
  { "name": "Dell", "website": "https://www.dell.com", "phone": "1-800-288-4410" },
  { "name": "DHL", "website": "https://www.dhl.com", "phone": "1-800-225-5345" },
  { "name": "DISH", "website": "https://www.dish.com", "phone": "800-333-3474", "hours": "7:00 AM - 8:30 PM MST" },
  { "name": "Disney+", "website": "https://www.disneyplus.com", "phone": "888-905-7888" },
  { "name": "Driver Uber Support", "website": "https://help.uber.com", "phone": "1-800-593-7069 or 1-800 253 9435" },
  { "name": "eBay", "website": "https://www.ebay.com", "phone": "+1 (866) 961-9253 or 1-866-540-3229" },
  { "name": "eBay Australia", "website": "https://www.ebay.com.au", "phone": "1800 093 577" },
  { "name": "eDreams", "website": "https://www.edreams.net", "phone": "1 (650) 215-5189" },
  { "name": "EE", "website": "https://www.ee.co.uk", "phone": "07953 966 150 or 150 (EE mobile)" },
  { "name": "EPSON", "website": "https://epson.com", "phone": "1800-444-1527 (U.S.) or 905-709-9475 (Canada)", "hours": "Monday - Friday 08:00 - 20:00" },
  { "name": "ESPN+", "website": "https://plus.espn.com", "phone": "800-727-1800" },
  { "name": "Expedia", "website": "https://www.expedia.com", "phone": "1-866-310-5768" },
  { "name": "Fanatics", "website": "https://www.fanatics.com", "phone": "1-877-833-7397" },
  { "name": "FedEx", "website": "https://www.fedex.com", "phone": "1.800.463.3339" },
  { "name": "FITBIT", "website": "https://www.fitbit.com", "phone": "(877) 623-4997 (US) or 0800 069 8505 (UK)" },
  { "name": "FuboTV", "website": "https://www.fubo.tv", "phone": "844-551-1005 or 1-844-238-2688" },
  { "name": "GARMIN UK", "website": "https://www.garmin.com/en-GB", "phone": "0808 238 0000", "hours": "Monday-Friday 8:30 - 17:30 GMT" },
  { "name": "GARMIN US", "website": "https://www.garmin.com", "phone": "913 397 0872 or 800 800 1020", "hours": "Monday-Friday 8:30 - 17:30 GMT" },
  { "name": "GoDaddy", "website": "https://www.godaddy.com", "phone": "480 463-8773" },
  { "name": "HISENSE", "website": "https://www.hisense-usa.com", "phone": "+1 (888) 935-8880 or 1-855-344-7367" },
  { "name": "HP Instant Ink", "website": "https://instantink.hpconnected.com", "phone": "1-855-785-2777" },
  { "name": "HP Phone Number", "website": "https://www.hp.com", "phone": "1-800-334-5144" },
  { "name": "Hulu", "website": "https://www.hulu.com", "phone": "801-683-0736" },
  { "name": "Instacart Grocery", "website": "https://www.instacart.com", "phone": "18449813433" },
  { "name": "LG", "website": "https://www.lg.com", "phone": "800-243-0000 or 850-999-4934" },
  { "name": "Malwarebytes", "website": "https://www.malwarebytes.com", "phone": "+1-800-520-2796", "hours": "Press 2 to connect" },
  { "name": "McAfee", "website": "https://www.mcafee.com", "phone": "1-866-622-3911" },
  { "name": "Netflix", "website": "https://www.netflix.com", "phone": "1-844-505-2993" },
  { "name": "Norton", "website": "https://www.norton.com", "phone": "1-800-745-6034" },
  { "name": "Panasonic", "website": "https://www.panasonic.com", "phone": "877-438-7881" },
  { "name": "PARAMOUNT+", "website": "https://www.paramountplus.com", "phone": "1-888-274-5343", "hours": "Press 1 and then 9" },
  { "name": "PayPal", "website": "https://www.paypal.com", "phone": "1-888-221-1161", "hours": "6:00 AM PT to 6:00 PM PT Monday through Sunday" },
  { "name": "Peacock", "website": "https://www.peacocktv.com", "phone": "0330 124 2184 (UK) or (212) 664-7864 (US)" },
  { "name": "PlayStation", "website": "https://www.playstation.com", "phone": "1800 345 7669" },
  { "name": "Rogers", "website": "https://www.rogers.com", "phone": "1-888-764-3771" },
  { "name": "ROKU", "website": "https://www.roku.com", "phone": "(816) 272-8106" },
  { "name": "Royal Mail", "website": "https://www.royalmail.com", "phone": "03457 740 740" },
  { "name": "SAMSUNG UK", "website": "https://www.samsung.com/uk", "phone": "0333 000 0333" },
  { "name": "SAMSUNG US", "website": "https://www.samsung.com/us", "phone": "(866) 726-4249" },
  { "name": "Shaw", "website": "https://www.shaw.ca", "phone": "1-888-472-2222" },
  { "name": "Siriusxm", "website": "https://www.siriusxm.com", "phone": "1-800-689-6881 or 1-888-601-6271" },
  { "name": "SKY (UK)", "website": "https://www.sky.com", "phone": "03300 413 000" },
  { "name": "Sling TV", "website": "https://www.sling.com", "phone": "1-855-372-8003", "hours": "10:00 AM - 10:00 PM ET" },
  { "name": "SONY UK", "website": "https://www.sony.co.uk", "phone": "+44 (0) 2073652810" },
  { "name": "Spectrum", "website": "https://www.spectrum.net", "phone": "833.949.0036" },
  { "name": "Square", "website": "https://squareup.com", "phone": "855-700-6000", "hours": "Monday-Friday 6:00 AM - 6:00 PM PDT" },
  { "name": "StubHub", "website": "https://www.stubhub.com", "phone": "1.866.788.2482" },
  { "name": "Support AVG", "website": "https://www.avg.com", "phone": "1-844-259-8811", "hours": "24x7, Monday - Sunday" },
  { "name": "T Mobile", "website": "https://www.t-mobile.com", "phone": "1-800-937-8997" },
  { "name": "TalkTalk", "website": "https://www.talktalk.co.uk", "phone": "0345 172 0088" },
  { "name": "TCL", "website": "https://www.tcl.com", "phone": "1-877-300-8837" },
  { "name": "TELUS", "website": "https://www.telus.com", "phone": "1-888-811-2323" },
  { "name": "Temu", "website": "https://www.temu.com", "phone": "1-888-495-8368", "hours": "7 am-11 pm (EST)" },
  { "name": "TicketMaster", "website": "https://www.ticketmaster.com", "phone": "1-800-653-8000" },
  { "name": "TOSHIBA (UK)", "website": "https://www.toshiba.co.uk", "phone": "0333 733 4422" },
  { "name": "Turbotax", "website": "https://turbotax.intuit.com", "phone": "(800) 446-8848", "hours": "7:00 to 23:00 EST" },
  { "name": "Uber Book a Ride Over Phone", "website": "https://www.uber.com", "phone": "1-833-873-8237" },
  { "name": "Uber Eats", "website": "https://www.ubereats.com", "phone": "1-800-253-9377" },
  { "name": "UPS", "website": "https://www.ups.com", "phone": "1-800-742-5877 or 1-877-289-6418" },
  { "name": "USPS", "website": "https://www.usps.com", "phone": "1-800-275-8777 or 1-800-344-7779" },
  { "name": "Verizon", "website": "https://www.verizon.com", "phone": "1-800-922-0204" },
  { "name": "Virgin (UK)", "website": "https://www.virginmedia.com", "phone": "03454541111" },
  { "name": "VIZIO", "website": "https://www.vizio.com", "phone": "844-254-8087" },
  { "name": "Xbox", "website": "https://www.xbox.com", "phone": "000 8000 404 454" },
  { "name": "Xfinity Team", "website": "https://www.xfinity.com", "phone": "1-800-934-6489 or 1-888-294-6804" },
  { "name": "Yahoo Pro", "website": "https://www.yahoo.com", "phone": "1-800 760 1284 or +1 (800) 741-7610" },
  { "name": "Yahoo UK", "website": "https://uk.yahoo.com", "phone": "0808-234-5306" },
  { "name": "YouTube TV", "website": "https://tv.youtube.com", "phone": "1-833-855-0817 or 1-833-389-2054", "hours": "Press 1 Refund / Press 2 Billing / Press 3 Other concerns" },
  { "name": "Zelle", "website": "https://www.zellepay.com", "phone": "1-844-428-8542" },
  { "name": "ZOOM", "website": "https://zoom.us", "phone": "+1.888.799.9666", "hours": "SALES EXT. 1 | SUPPORT EXT. 2 | BILLING EXT. 3" }
]

